[
	{
		"pic": "http://store.is.autonavi.com/showpic/6758bc1520cb4f61b67ac6b1413cf26a?operate=merge&w=160&h=150&position=5",
		"price": "<font color='#999999'>äººå‡:</font><font color='#f53623'>ï¿¥</font><font color='#f53623'>102</font>",
		"name": "å”å®«æµ·é²œèˆ«(æ–¹æ’è´­ç‰©ä¸­å¿ƒ)",
		"rating": "4.5",
		"address": "æœ›äº¬é˜œé€šä¸œå¤§è¡—6å·é™¢4å·æ¥¼æ–¹æ’è´­ç‰©ä¸­å¿ƒ3Få±‚",
		"id": "B0FFFFN5HZ",
		"latitude": "39.989449",
		"longitude": "116.481565"
	}, {
		"pic": "http://store.is.autonavi.com/showpic/d829b8ed2bb74b3e56ceac85b4b66aa5?operate=merge&w=160&h=150&position=5",
		"price": "<font color='#999999'>äººå‡:</font><font color='#f53623'>ï¿¥</font><font color='#f53623'>109</font>",
		"name": "æµ·åº•æžç«é”…(æœ›äº¬åº—)",
		"rating": "5.0",
		"address": "æœ›äº¬è¡—9å·æœ›äº¬å›½é™…å•†ä¸šä¸­å¿ƒEåº§4å±‚",
		"id": "B000A7RYT5",
		"latitude": "39.989934",
		"longitude": "116.484401"
	}, {
		"pic": "http://store.is.autonavi.com/showpic/0aedd89138c8d3684fb58e9af0595a23?operate=merge&w=160&h=150&position=5",
		"price": "<font color='#999999'>äººå‡:</font><font color='#f53623'>ï¿¥</font><font color='#f53623'>72</font>",
		"name": "ç«å®´å±±(æœ›äº¬åº—)",
		"rating": "4.0",
		"address": "æœ›äº¬é˜œé€šä¸œå¤§è¡—6å·é™¢4å·æ¥¼æ–¹æ’è´­ç‰©ä¸­å¿ƒ4Få±‚",
		"id": "B000A8WBJ0",
		"latitude": "39.989459",
		"longitude": "116.481574"
	}, {
		"pic": "http://store.is.autonavi.com/showpic/84264718b1fa215e9913fa44afd5c2be?operate=merge&w=160&h=150&position=5",
		"price": "<font color='#999999'>äººå‡:</font><font color='#f53623'>ï¿¥</font><font color='#f53623'>104</font>",
		"name": "å®´ç¨¼åŽ¨æˆ¿(æœ›äº¬åº—)",
		"rating": "5.0",
		"address": "æœ›äº¬é˜œé€šä¸œå¤§è¡—6å·é™¢4å·æ¥¼æ–¹æ’è´­ç‰©ä¸­å¿ƒ4Få±‚",
		"id": "B000A8VPK3",
		"latitude": "39.990330",
		"longitude": "116.482555"
	}, {
		"pic": "http://store.is.autonavi.com/showpic/cd3ce1373f10dd67f0776fc3634152e8?operate=merge&w=160&h=150&position=5",
		"price": "<font color='#999999'>äººå‡:</font><font color='#f53623'>ï¿¥</font><font color='#f53623'>149</font>",
		"name": "æ³°é£Ÿé¦†(æ–°ä¸–ç•Œç™¾è´§æœ›äº¬åº—)",
		"rating": "5.0",
		"address": "å¹¿é¡ºå—å¤§è¡—16å·æ–°ä¸–ç•Œåˆ©èŽ¹ç™¾è´§æœ›äº¬åº—1å±‚",
		"id": "B000A87P08",
		"latitude": "39.987221",
		"longitude": "116.479666"
	}, {
		"pic": "http://store.is.autonavi.com/showpic/60ecd0951a9ccec2b9af675627dbb4d3?operate=merge&w=160&h=150&position=5",
		"price": "<font color='#999999'>äººå‡:</font><font color='#f53623'>ï¿¥</font><font color='#f53623'>108</font>",
		"name": "å®‰å¦®æ„å¤§åˆ©é¤åŽ…(æœ›äº¬åº—)",
		"rating": "5.0",
		"address": "æœ›äº¬è¡—8å·åˆ©æ˜Ÿè¡Œå¹¿åœºAåº§æˆ´å§†å‹’å¤§åŽ¦è£™æ¥¼2å±‚(è¿‘æœ›äº¬å•†ä¸šä¸­å¿ƒ)",
		"id": "B0FFF6Q02R",
		"latitude": "39.993752",
		"longitude": "116.481931"
	}, {
		"pic": "http://store.is.autonavi.com/showpic/3fa6dd3d945b1e7f7066878c0175c453?operate=merge&w=160&h=150&position=5",
		"price": "<font color='#999999'>äººå‡:</font><font color='#f53623'>ï¿¥</font><font color='#f53623'>219</font>",
		"name": "é»‘æ¾ç™½é¹¿(æ–°ä¸–ç•Œç™¾è´§æœ›äº¬åº—)",
		"rating": "4.5",
		"address": "å¹¿é¡ºå—å¤§è¡—16å·é™¢æ–°ä¸–ç•Œç™¾è´§æœ›äº¬åº—5å±‚è¥¿ä¾§",
		"id": "B000A9NIKO",
		"latitude": "39.986964",
		"longitude": "116.479743"
	}, {
		"pic": "http://store.is.autonavi.com/showpic/3302412bf2b6a07b5872ad47e6242a78?operate=merge&w=160&h=150&position=5",
		"price": "<font color='#999999'>äººå‡:</font><font color='#f53623'>ï¿¥</font><font color='#f53623'>116</font>",
		"name": "Pakpakå–œæ‚¦æ³°",
		"rating": "5.0",
		"address": "æœ›äº¬åˆ©æ˜Ÿè¡Œå¹¿åœºå¥”é©°å±•åŽ…è£™æ¥¼2å±‚",
		"id": "B0FFG7LPYC",
		"latitude": "39.993760",
		"longitude": "116.481761"
	}, {
		"pic": "http://store.is.autonavi.com/showpic/0f6ebebcfde819c5a553827d326609ca?operate=merge&w=160&h=150&position=5",
		"price": "<font color='#999999'>äººå‡:</font><font color='#f53623'>ï¿¥</font><font color='#f53623'>83</font>",
		"name": "å£¹éœ–Â·æ´±è¯­(æ–¹æ’å›½é™…åº—)",
		"rating": "5.0",
		"address": "æœ›äº¬æ–¹æ’å›½é™…cåº§1å±‚101å®¤(é˜œé€šä¸œå¤§è¡—é˜œè£è¡—ä¸Žæœ›äº¬è¡—ä¸­é—´è·¯ä¸œ)",
		"id": "B0FFH6QYPM",
		"latitude": "39.990942",
		"longitude": "116.481571"
	}, {
		"pic": "http://store.is.autonavi.com/showpic/d90bbe6bfcbc79bc67c997dd84c4e104?operate=merge&w=160&h=150&position=5",
		"price": "<font color='#999999'>äººå‡:</font><font color='#f53623'>ï¿¥</font><font color='#f53623'>89</font>",
		"name": "æ–°è¾£é“æ¢­è¾¹é±¼ç«é”…(æœ›äº¬åº—)",
		"rating": "4.5",
		"address": "æœ›äº¬è¡—9å·æœ›äº¬å›½é™…å•†ä¸šä¸­å¿ƒBåº§2å±‚",
		"id": "B000A85R9E",
		"latitude": "39.990896",
		"longitude": "116.484240"
	}, {
		"pic": "http://store.is.autonavi.com/showpic/27de932363526958c3c21dd143d1d791?operate=merge&w=160&h=150&position=5",
		"price": "<font color='#999999'>äººå‡:</font><font color='#f53623'>ï¿¥</font><font color='#f53623'>79</font>",
		"name": "éŸ©æ—¶çƒ¤è‚‰(æ–°ä¸–ç•Œåº—)",
		"rating": "5.0",
		"address": "å¹¿é¡ºå—å¤§è¡—16å·æ–°ä¸–ç•Œç™¾è´§æœ›äº¬åº—3å±‚",
		"id": "B0FFGBI651",
		"latitude": "39.987011",
		"longitude": "116.479795"
	}, {
		"pic": "http://store.is.autonavi.com/showpic/aee004e0bdafc9dd895f7d89580bb59a?operate=merge&w=160&h=150&position=5",
		"price": "<font color='#999999'>äººå‡:</font><font color='#f53623'>ï¿¥</font><font color='#f53623'>85</font>",
		"name": "æ½®ç²¥èŸ(æœ›äº¬æ——èˆ°åº—)",
		"rating": "4.5",
		"address": "æœ›äº¬è¡—9å·æœ›äº¬å›½é™…å•†ä¸šä¸­å¿ƒBåº§6å±‚",
		"id": "B0FFFVPK62",
		"latitude": "39.990896",
		"longitude": "116.484240"
	}, {
		"pic": "http://store.is.autonavi.com/showpic/227d5873670a89d94864622ca60ebb24?operate=merge&w=160&h=150&position=5",
		"price": "<font color='#999999'>äººå‡:</font><font color='#f53623'>ï¿¥</font><font color='#f53623'>216</font>",
		"name": "åªäº­é“æ¿çƒ§Â·æ—¥æœ¬æ–™ç†(æœ›äº¬åº—)",
		"rating": "4.0",
		"address": "æœ›äº¬è¡—9å·æœ›äº¬å›½é™…å•†ä¸šä¸­å¿ƒBåº§5å±‚",
		"id": "B000A85R9D",
		"latitude": "39.990896",
		"longitude": "116.484240"
	}, {
		"pic": "http://store.is.autonavi.com/showpic/253a4097d55ff088a718c377bddb738c?operate=merge&w=160&h=150&position=5",
		"price": "<font color='#999999'>äººå‡:</font><font color='#f53623'>ï¿¥</font><font color='#f53623'>68</font>",
		"name": "çœ‰å·žä¸œå¡é…’æ¥¼(æœ›äº¬åº—)",
		"rating": "4.5",
		"address": "å¹¿é¡ºå—å¤§è¡—æœ›äº¬10å·é™¢6å·æ¥¼",
		"id": "B000A7ZS2K",
		"latitude": "39.989275",
		"longitude": "116.474709"
	}, {
		"pic": "http://store.is.autonavi.com/showpic/5409bc6035c869f5630acf26ac897b60?operate=merge&w=160&h=150&position=5",
		"price": "<font color='#999999'>äººå‡:</font><font color='#f53623'>ï¿¥</font><font color='#f53623'>110</font>",
		"name": "é‡åº†è®°å¿†è€ç¶ç«é”…(æœ›äº¬åº—)",
		"rating": "4.5",
		"address": "æœ›äº¬å•†ä¸šä¸­å¿ƒEåº§1å±‚",
		"id": "B0FFG74TCZ",
		"latitude": "39.989404",
		"longitude": "116.483934"
	}, {
		"pic": "http://store.is.autonavi.com/showpic/28409c3e87ef1c1a43734e937d0a761a?operate=merge&w=160&h=150&position=5",
		"price": "<font color='#999999'>äººå‡:</font><font color='#f53623'>ï¿¥</font><font color='#f53623'>97</font>",
		"name": "é˜¿è£å°é•‡ç«é”…(æœ›äº¬å›½é™…å•†ä¸šä¸­å¿ƒåº—)",
		"rating": "5.0",
		"address": "æœ›äº¬è¡—é“9å·æœ›äº¬å›½é™…å•†ä¸šä¸­å¿ƒCåº§(éº¦å½“åŠ³æ—)å››å±‚1å·",
		"id": "B0FFGONR7H",
		"latitude": "39.990897",
		"longitude": "116.484479"
	}, {
		"pic": "http://store.is.autonavi.com/showpic/8c803618c804505927226dd5e82cc2ed?operate=merge&w=160&h=150&position=5",
		"price": "<font color='#999999'>äººå‡:</font><font color='#f53623'>ï¿¥</font><font color='#f53623'>100</font>",
		"name": "å¹•ä¸€å¹•ä¸€é¤å§(æœ›äº¬æ€»åº—)",
		"rating": "4.5",
		"address": "æœ›äº¬æ‚ ä¹æ±‡A3-120(å¹¿é¡ºå—å¤§è¡—ä¸Žé˜œé€šä¸œå¤§è¡—äº¤å‰å£è¥¿åŒ—è§’)",
		"id": "B0FFH213GG",
		"latitude": "39.988916",
		"longitude": "116.477880"
	}, {
		"pic": "http://store.is.autonavi.com/showpic/dd494cffe6fe1c2ce5ebad348b6e0ceb?operate=merge&w=160&h=150&position=5",
		"price": "<font color='#999999'>äººå‡:</font><font color='#f53623'>ï¿¥</font><font color='#f53623'>122</font>",
		"name": "å¯Œå¥³é˜Ÿé•¿é‡åº†ç«é”…(æœ›äº¬åº—)",
		"rating": "4.5",
		"address": "æœ›äº¬è¡—9å·æœ›äº¬å›½é™…å•†ä¸šä¸­å¿ƒBåº§4å±‚",
		"id": "B0FFFAI6RX",
		"latitude": "39.990896",
		"longitude": "116.484240"
	}, {
		"pic": "http://store.is.autonavi.com/showpic/8b54c40064a90135d1031eab22ca19a6?operate=merge&w=160&h=150&position=5",
		"price": "<font color='#999999'>äººå‡:</font><font color='#f53623'>ï¿¥</font><font color='#f53623'>64</font>",
		"name": "ä¾çš“åŽ¨æˆ¿(æœ›äº¬æ‚ ä¹æ±‡åº—)",
		"rating": "4.5",
		"address": "æœ›äº¬æ‚ ä¹æ±‡AåŒº6å±‚",
		"id": "B0FFGDRIE7",
		"latitude": "39.989024",
		"longitude": "116.476811"
	}, {
		"pic": "http://store.is.autonavi.com/showpic/8f635ea4103ac9861e6a88962acec0a5?operate=merge&w=160&h=150&position=5",
		"price": "<font color='#999999'>äººå‡:</font><font color='#f53623'>ï¿¥</font><font color='#f53623'>91</font>",
		"name": "é¹¿æ¸¯å°é•‡(æ–°ä¸–ç•Œåˆ©èŽ¹ç™¾è´§)",
		"rating": "4.0",
		"address": "å¹¿é¡ºå—å¤§è¡—16å·é™¢1å·ç´¢å°¼ç§»åŠ¨é€šä¿¡å¤§åŽ¦1å±‚",
		"id": "B000A84CLE",
		"latitude": "39.986120",
		"longitude": "116.480874"
	}
]